var fire_stations = {
"type": "FeatureCollection",
"name": "Fire_stations",
"crs": { "type": "name", "properties": { "name": "urn:ogc:def:crs:OGC:1.3:CRS84" } },
"features": [
{ "type": "Feature", "properties": { "OBJECTID": 1, "Station_lo": "1801 Q St", "Year_": 1967, "Station_Nu": "1", "Station_Na": "Station_1", "Date_Upada": "2012-03-02T00:00:00Z" }, "geometry": { "type": "Point", "coordinates": [ -96.694895779410217, 40.815564015158245 ] } },
{ "type": "Feature", "properties": { "OBJECTID": 2, "Station_lo": "1545 N 33rd St", "Year_": 1990, "Station_Nu": "2", "Station_Na": "Station_2", "Date_Upada": "2012-03-02T00:00:00Z" }, "geometry": { "type": "Point", "coordinates": [ -96.673186114167933, 40.828817413246412 ] } },
{ "type": "Feature", "properties": { "OBJECTID": 3, "Station_lo": "5600 S 27th St", "Year_": 1990, "Station_Nu": "4", "Station_Na": "Station_4", "Date_Upada": "2012-03-02T00:00:00Z" }, "geometry": { "type": "Point", "coordinates": [ -96.681999204694677, 40.756622329613748 ] } },
{ "type": "Feature", "properties": { "OBJECTID": 4, "Station_lo": "3640 Touzalin Ave", "Year_": 1971, "Station_Nu": "5", "Station_Na": "Station_5", "Date_Upada": "2012-03-02T00:00:00Z" }, "geometry": { "type": "Point", "coordinates": [ -96.639524720711094, 40.849315629645169 ] } },
{ "type": "Feature", "properties": { "OBJECTID": 5, "Station_lo": "5051 S 48th St", "Year_": 1971, "Station_Nu": "6", "Station_Na": "Station_6", "Date_Upada": "2012-03-02T00:00:00Z" }, "geometry": { "type": "Point", "coordinates": [ -96.654084920012124, 40.762831211336071 ] } },
{ "type": "Feature", "properties": { "OBJECTID": 6, "Station_lo": "1345 S Cotner Blvd", "Year_": 1954, "Station_Nu": "7", "Station_Na": "Station_7", "Date_Upada": "2012-03-02T00:00:00Z" }, "geometry": { "type": "Point", "coordinates": [ -96.650636914839424, 40.799206927246161 ] } },
{ "type": "Feature", "properties": { "OBJECTID": 7, "Station_lo": "2760 S 17th St", "Year_": 1958, "Station_Nu": "8", "Station_Na": "Station_8", "Date_Upada": "2012-03-02T00:00:00Z" }, "geometry": { "type": "Point", "coordinates": [ -96.696437687597623, 40.784939584215877 ] } },
{ "type": "Feature", "properties": { "OBJECTID": 8, "Station_lo": "1440 Adams St", "Year_": 1965, "Station_Nu": "10", "Station_Na": "Station_10", "Date_Upada": "2012-03-02T00:00:00Z" }, "geometry": { "type": "Point", "coordinates": [ -96.699566448459962, 40.843128359400318 ] } },
{ "type": "Feature", "properties": { "OBJECTID": 9, "Station_lo": "1700 S Coddington Ave", "Year_": 1981, "Station_Nu": "13", "Station_Na": "Station_13", "Date_Upada": "2012-03-02T00:00:00Z" }, "geometry": { "type": "Point", "coordinates": [ -96.748965774669841, 40.795935802339173 ] } },
{ "type": "Feature", "properties": { "OBJECTID": 10, "Station_lo": "5435 NW 1ST ST", "Year_": 1997, "Station_Nu": "14", "Station_Na": "Station_14", "Date_Upada": "2012-03-02T00:00:00Z" }, "geometry": { "type": "Point", "coordinates": [ -96.7223147185248, 40.865024419237521 ] } },
{ "type": "Feature", "properties": { "OBJECTID": 11, "Station_lo": "2201 S 84th St", "Year_": 1975, "Station_Nu": "12", "Station_Na": "Station_12", "Date_Upada": "2012-03-02T00:00:00Z" }, "geometry": { "type": "Point", "coordinates": [ -96.606517831689899, 40.790296338268028 ] } },
{ "type": "Feature", "properties": { "OBJECTID": 12, "Station_lo": "901 N Cotner Blvd", "Year_": 1962, "Station_Nu": "9", "Station_Na": "Station_9", "Date_Upada": "2012-03-02T00:00:00Z" }, "geometry": { "type": "Point", "coordinates": [ -96.633937054979498, 40.821885044727225 ] } },
{ "type": "Feature", "properties": { "OBJECTID": 13, "Station_lo": "3401 NW Luke ST", "Year_": 2011, "Station_Nu": "11", "Station_Na": "Station_11", "Date_Upada": "2012-03-02T00:00:00Z" }, "geometry": { "type": "Point", "coordinates": [ -96.771059945765487, 40.849766495304628 ] } },
{ "type": "Feature", "properties": { "OBJECTID": 14, "Station_lo": "2nd & N St", "Year_": 1972, "Station_Nu": "3", "Station_Na": "Station_3", "Date_Upada": "2012-03-02T00:00:00Z" }, "geometry": { "type": "Point", "coordinates": [ -96.719080268979809, 40.812772182737412 ] } }
]
}
